city_id,canonical_name,modern_name,lat,lon,region,notes
eridu,Eridu,Tell Abu Shahrain,30.8155,45.9961,mesopotamia-sumer,In Sumerian tradition the first city; cult center of Enki/Ea
uruk,Uruk,Warka,31.3224,45.6361,mesopotamia-sumer,Biblical Erech; type-site of the Uruk period; cult center of Inanna/An
ur,Ur,Tell el-Muqayyar,30.9626,46.1031,mesopotamia-sumer,Cult center of Nanna/Sin; capital of the Third Dynasty of Ur
nippur,Nippur,Nuffar,32.1264,45.2300,mesopotamia-sumer,Religious center of Enlil; conferred legitimacy on Sumerian kings but never a political capital
lagash,Lagash,Tell al-Hiba,31.4167,46.4069,mesopotamia-sumer,City of the Lagash state; the state's administrative-religious capital Girsu (Telloh) is the separate site girsu
girsu,Girsu,Telloh,31.5667,46.1833,mesopotamia-sumer,Administrative-religious capital of the Lagash state; Gudea's seat
umma,Umma,Tell Jokha,31.6500,45.8833,mesopotamia-sumer,Rival of Lagash; under Lugalzagesi briefly unified Sumer before Sargon
adab,Adab,Bismaya,31.9500,45.6167,mesopotamia-sumer,Home of the conqueror Lugalannemundu in later tradition
shuruppak,Shuruppak,Fara,31.7800,45.5100,mesopotamia-sumer,Home of Ziusudra the flood hero; source of an early tablet archive
larsa,Larsa,Tell as-Senkereh,31.2864,45.8553,mesopotamia-sumer,Cult center of the sun god Utu; rival of Isin in the Isin-Larsa period
isin,Isin,Ishan al-Bahriyat,31.8783,45.2742,mesopotamia-sumer,Seat of two dynasties; first rose as Ur III collapsed
kish,Kish,Tell al-Uhaymir,32.5436,44.6053,mesopotamia-akkad,Seat of the first post-Flood dynasty; the title king of Kish implied hegemony over Sumer
akkad,Akkad,unidentified,,,mesopotamia-akkad,Capital of the Akkadian Empire; archaeological site never securely located (likely near the Tigris-Diyala confluence)
sippar,Sippar,Tell Abu Habbah,33.0556,44.2600,mesopotamia-akkad,Cult center of the sun god Shamash; long-lived Ebabbar temple archive
babylon,Babylon,Hillah,32.5417,44.4208,mesopotamia-akkad,Capital of the Old Babylonian and Neo-Babylonian empires; carries the regional timeline furthest forward
mari,Mari,Tell Hariri,34.5500,40.8900,mesopotamia-euphrates,Planned circular city on the middle Euphrates; razed by Hammurabi
assur,Assur,Qalat Sherqat,35.4575,43.2628,mesopotamia-assyria,First capital and eternal cult center of the god Ashur
nineveh,Nineveh,Mosul (Kuyunjik),36.3592,43.1525,mesopotamia-assyria,Greatest Neo-Assyrian capital under Sennacherib; superseded by Mosul across the Tigris
kalhu,Kalhu,Nimrud,36.0989,43.3272,mesopotamia-assyria,Biblical Calah; Neo-Assyrian capital from Ashurnasirpal II
dur-sharrukin,Dur-Sharrukin,Khorsabad,36.5094,43.2294,mesopotamia-assyria,Sargon II's purpose-built capital; abandoned almost immediately after his death
arbela,Arbela,Erbil,36.1911,44.0092,mesopotamia-assyria,Among the oldest continuously inhabited cities on earth; still a living city today
harran,Harran,Harran,36.8639,39.0306,mesopotamia-assyria,Cult center of the moon god Sin; the last capital of Assyria and later Battle of Carrhae
memphis,Memphis,Mit Rahina,29.8492,31.2508,egypt-lower,Capital of the Old Kingdom at the apex of the Delta; the White Walls
heliopolis,Heliopolis,Cairo (Matariya),30.1290,31.3070,egypt-lower,The great cult center of the sun god Ra (Iunu); now under Cairo
thebes,Thebes,Luxor,25.7188,32.6573,egypt-upper,Capital of the Middle and New Kingdoms; cult center of Amun; modern Luxor
akhetaten,Akhetaten,Tell el-Amarna,27.6450,30.8960,egypt-upper,Akhenaten's purpose-built capital for the Aten; abandoned within a generation
avaris,Avaris,Tell el-Dab'a,30.7870,31.8210,egypt-lower,Hyksos capital in the eastern Delta; Pi-Ramesses later rose alongside it
tanis,Tanis,San el-Hagar,30.9750,31.8800,egypt-lower,Third Intermediate Period capital built from Pi-Ramesses' reused stone
alexandria,Alexandria,Alexandria,31.2000,29.9187,egypt-lower,Alexander's Hellenistic capital; library and lighthouse; still Egypt's chief port
elephantine,Elephantine,Aswan,24.0889,32.8897,egypt-upper,Island frontier town at the First Cataract; gateway to Nubia; modern Aswan
jericho,Jericho,Tell es-Sultan,31.8711,35.4442,levant-inland,Among the oldest known settlements; Neolithic tower and walls
byblos,Byblos,Jbeil,34.1208,35.6481,levant-coast,Ancient Phoenician port; gave its name to the Greek word for book (and Bible)
ugarit,Ugarit,Ras Shamra,35.6020,35.7820,levant-coast,Late Bronze Age port kingdom and home of an early alphabet; destroyed in the Bronze Age collapse
megiddo,Megiddo,Tel Megiddo,32.5847,35.1844,levant-inland,Canaanite-Israelite stronghold over the Jezreel Valley; root of the name Armageddon
damascus,Damascus,Damascus,33.5131,36.2919,levant-inland,Claimed oldest continuously inhabited capital; later capital of the Umayyad Caliphate
tyre,Tyre,Sur,33.2705,35.2038,levant-coast,Phoenician maritime power; mother-city of Carthage; besieged by Alexander
sidon,Sidon,Saida,33.5571,35.3729,levant-coast,Phoenician city-state; rival and partner of Tyre
jerusalem,Jerusalem,Jerusalem,31.7794,35.2353,levant-inland,Capital of Judah; fought over by empires from Babylon to Rome to the Caliphates and Crusaders
susa,Susa,Shush,32.1900,48.2600,iran-zagros,Elamite capital and later an Achaemenid royal city; sacked by Ashurbanipal and Alexander
anshan,Anshan,Tal-e Malyan,30.0100,52.4000,iran-zagros,Highland Elamite capital; source of Cyrus the Great's title king of Anshan
ecbatana,Ecbatana,Hamadan,34.8000,48.5200,iran-zagros,Median capital and Achaemenid summer residence; continues today as Hamadan
pasargadae,Pasargadae,Pasargadae,30.2000,53.1800,iran-zagros,Cyrus the Great's capital and the site of his tomb
persepolis,Persepolis,Takht-e Jamshid,29.9400,52.8900,iran-zagros,Ceremonial capital of the Achaemenid Empire; burned by Alexander
catalhoyuk,Catalhoyuk,Catalhoyuk,37.6700,32.8300,anatolia,One of the world's earliest large proto-urban settlements
troy,Troy,Hisarlik,39.9570,26.2390,anatolia,Bronze Age citadel over the Dardanelles; the Troy of legend
hattusa,Hattusa,Bogazkale,40.0190,34.6150,anatolia,Capital of the Hittite Empire; destroyed in the Bronze Age collapse
gordion,Gordion,Yassihoyuk,39.6500,31.9900,anatolia,Capital of Phrygia and city of King Midas; the Gordian Knot
sardis,Sardis,Sart,38.4900,28.0400,anatolia,Capital of Lydia under Croesus; birthplace of coinage
ephesus,Ephesus,Selcuk,37.9400,27.3400,anatolia,Great Ionian-Roman metropolis; the Temple of Artemis; abandoned as its harbor silted
byzantium,Byzantium,Istanbul,41.0080,28.9784,anatolia,Byzantion then Constantinople then Istanbul; capital of the Roman and Ottoman empires
knossos,Knossos,Knossos,35.2980,25.1630,greece,Center of Minoan Crete; the labyrinthine palace
mycenae,Mycenae,Mykines,37.7310,22.7560,greece,Citadel that named Mycenaean civilization; the Lion Gate
athens,Athens,Athens,37.9838,23.7275,greece,Leading polis of Classical Greece; democracy and the cultural golden age
sparta,Sparta,Sparti,37.0820,22.4230,greece,The pre-eminent military polis of Classical Greece
corinth,Corinth,Korinthos,37.9060,22.8800,greece,Wealthy commercial polis on the isthmus; destroyed and refounded by Rome
thebai,Thebes (Boeotia),Thiva,38.3200,23.3190,greece,Boeotian Thebes; briefly hegemon of Greece before Alexander razed it
argos,Argos,Argos,37.6310,22.7190,greece,Among the oldest continuously inhabited cities in Greece
pella,Pella,Pella,40.7600,22.5200,macedon,Capital of Macedon and birthplace of Alexander the Great
aigai,Aigai,Vergina,40.4800,22.3200,macedon,First royal capital of Macedon; the tomb of Philip II
thessalonica,Thessalonica,Thessaloniki,40.6400,22.9440,macedon,Hellenistic foundation and great Byzantine metropolis; modern Thessaloniki
philippi,Philippi,Filippoi,41.0130,24.2870,macedon,Philip II's mining town; site of the Battle of Philippi
kerma,Kerma,Kerma,19.6000,30.4100,nubia,Capital of the Bronze Age Kingdom of Kerma; first great power of Nubia
napata,Napata,Karima,18.5300,31.8300,nubia,Kushite capital below Jebel Barkal; seat of the dynasty that ruled Egypt
meroe,Meroe,Begrawiya,16.9300,33.7200,nubia,Later Kushite capital; ironworking and a field of royal pyramids
dongola,Old Dongola,Old Dongola,18.2200,30.7400,nubia,Capital of the Christian Nubian kingdom of Makuria
soba,Soba,Soba,15.5300,32.6800,nubia,Capital of the Christian Nubian kingdom of Alodia near modern Khartoum
panticapaeum,Panticapaeum,Kerch,45.3500,36.4700,pontic-steppe,Greek colony and capital of the Bosporan Kingdom in the Crimea
olbia,Olbia,Parutyne,46.6900,31.9000,pontic-steppe,Greek emporion at the mouth of the Bug and Dnieper
chersonesus,Chersonesus,Sevastopol,44.6100,33.4900,pontic-steppe,Greek colony and later the Byzantine port of Cherson
tanais,Tanais,Nedvigovka,47.2700,39.3400,pontic-steppe,Greek-Sarmatian trade emporium at the mouth of the Don
carthage,Carthage,Tunis,36.8500,10.3200,north-africa,Phoenician colony that became the great maritime empire of the western Mediterranean
cyrene,Cyrene,Shahhat,32.8200,21.8600,north-africa,Greek colony and chief city of Cyrenaica
utica,Utica,Utique,37.0600,10.0600,north-africa,Phoenician port older than Carthage; later a Roman city
leptis-magna,Leptis Magna,Khoms,32.6300,14.2900,north-africa,Punic then Roman city; birthplace of the emperor Septimius Severus
rome,Rome,Rome,41.8900,12.4900,italy,City of the Roman Republic and Empire; later seat of the papacy and capital of Italy
syracuse,Syracuse,Siracusa,37.0700,15.2900,italy,Greek superpower of Sicily; home of Archimedes
tarentum,Tarentum,Taranto,40.4600,17.2400,italy,Spartan colony and chief city of Magna Graecia
neapolis,Neapolis,Naples,40.8500,14.2700,italy,Greek foundation that endured as Naples
mediolanum,Mediolanum,Milan,45.4600,9.1900,italy,Late Roman imperial capital; modern Milan
ravenna,Ravenna,Ravenna,44.4200,12.2000,italy,Capital of the late Western Roman Empire and the Byzantine exarchate
massalia,Massalia,Marseille,43.3000,5.3700,gaul,Greek colony that became the great port of southern Gaul
lugdunum,Lugdunum,Lyon,45.7600,4.8300,gaul,Roman capital of the Gauls; birthplace of emperors
lutetia,Lutetia,Paris,48.8500,2.3500,gaul,Gaulish then Roman town on the Seine; the future Paris
narbo,Narbo,Narbonne,43.1800,3.0000,gaul,First Roman colony in Gaul and capital of Gallia Narbonensis
burdigala,Burdigala,Bordeaux,44.8400,-0.5800,gaul,Gaulish and Roman city on the Garonne; the future Bordeaux
gades,Gades,Cadiz,36.5300,-6.2900,iberia,Phoenician foundation often called the oldest city in western Europe
carthago-nova,Carthago Nova,Cartagena,37.6100,-0.9900,iberia,Carthaginian then Roman city of the rich silver mines
tarraco,Tarraco,Tarragona,41.1200,1.2500,iberia,Capital of Roman Hispania Tarraconensis
corduba,Corduba,Cordoba,37.8900,-4.7800,iberia,Roman colony and later capital of the Umayyad Caliphate of Cordoba
emerita-augusta,Emerita Augusta,Merida,38.9200,-6.3400,iberia,Roman colony and capital of Lusitania
toletum,Toletum,Toledo,39.8600,-4.0300,iberia,Capital of the Visigothic kingdom of Hispania
londinium,Londinium,London,51.5100,-0.1300,britannia,Roman foundation that became London
camulodunum,Camulodunum,Colchester,51.8900,0.9000,britannia,First Roman colony in Britain; sacked by Boudica
eboracum,Eboracum,York,53.9600,-1.0800,britannia,Roman legionary capital of northern Britain; the future York
colonia-agrippina,Colonia Agrippina,Cologne,50.9400,6.9600,germania,Roman colony on the Rhine; the future Cologne
augusta-treverorum,Augusta Treverorum,Trier,49.7500,6.6400,germania,Late Roman imperial capital on the Moselle; the Rome of the North
mogontiacum,Mogontiacum,Mainz,50.0000,8.2700,germania,Roman legionary base and capital of Germania Superior
mohenjo-daro,Mohenjo-daro,Mohenjo-daro,27.3250,68.1380,india,One of the great planned cities of the Indus Valley civilization
harappa,Harappa,Harappa,30.6280,72.8640,india,Type-site of the Harappan civilization on the Ravi
taxila,Taxila,Taxila,33.7460,72.7870,india,Gandharan seat of learning ruled in turn by Persia Macedon and the Mauryas
pataliputra,Pataliputra,Patna,25.6120,85.1580,india,Imperial capital of the Maurya and Gupta empires on the Ganges
varanasi,Varanasi,Varanasi,25.3176,83.0064,india,One of the oldest continuously inhabited cities; sacred on the Ganges
ujjain,Ujjain,Ujjain,23.1828,75.7772,india,Capital of Avanti and a classical center of Indian astronomy
madurai,Madurai,Madurai,9.9252,78.1198,india,Capital of the Pandya kingdom and a center of Tamil culture
delhi,Delhi,Delhi,28.6139,77.2090,india,Seat of the Delhi Sultanate the Mughal Empire and modern India
kandahar,Kandahar,Kandahar,31.6100,65.7100,india,Alexandria in Arachosia; Mauryan northwest frontier bearing Ashoka's Greek-Aramaic edict
kaushambi,Kaushambi,Kosam,25.3450,81.3900,india,Capital of the Vatsa mahajanapada and a Mauryan city with an Ashokan pillar
hakata,Hakata,Fukuoka,33.5900,130.4000,japan,Kyushu port and gateway to China; site of the repelled Mongol invasions
mathura,Mathura,Mathura,27.4924,77.6737,india,Ancient Yamuna city sacred to Krishna and a southern Kushan capital
agra,Agra,Agra,27.1767,78.0081,india,Mughal capital on the Yamuna and site of the Taj Mahal
kolkata,Kolkata,Kolkata,22.5726,88.3639,india,Company port that became the capital of British India
warsaw,Warsaw,Warsaw,52.2300,21.0100,europe-east,Capital of the Polish-Lithuanian Commonwealth and of modern Poland
st-petersburg,Saint Petersburg,Saint Petersburg,59.9400,30.3100,europe-east,Imperial capital founded by Peter the Great on the Baltic
vilnius,Vilnius,Vilnius,54.6900,25.2800,europe-east,Capital of the Grand Duchy of Lithuania
lviv,Lviv,Lviv,49.8400,24.0300,europe-east,Galician city ruled in turn by Poland Austria and Ukraine
belgrade,Belgrade,Belgrade,44.7900,20.4500,europe-east,Fortress at the Danube-Sava confluence and capital of Serbia
sofia,Sofia,Sofia,42.7000,23.3200,europe-east,Roman Serdica and the capital of modern Bulgaria
tarnovo,Tarnovo,Veliko Tarnovo,43.0800,25.6200,europe-east,Capital of the Second Bulgarian Empire
rio-de-janeiro,Rio de Janeiro,Rio de Janeiro,-22.9100,-43.2000,americas,Portuguese port that became the capital of the Empire of Brazil
salvador,Salvador,Salvador,-12.9700,-38.5000,americas,First capital of Portuguese Brazil on the Bahia coast
sao-paulo,Sao Paulo,Sao Paulo,-23.5500,-46.6300,americas,Jesuit mission grown into the largest city in the Americas
brasilia,Brasilia,Brasilia,-15.7900,-47.8800,americas,Modernist capital built in the Brazilian interior in 1960
buenos-aires,Buenos Aires,Buenos Aires,-34.6000,-58.3800,americas,Rio de la Plata port and capital of Argentina
hippo-regius,Hippo Regius,Annaba,36.9000,7.7700,north-africa,Augustine's see and Geiseric's first Vandal capital
oran,Oran,Oran,35.7000,-0.6300,north-africa,Algerian port held for centuries as a Spanish presidio
rabat,Rabat,Rabat,34.0200,-6.8300,north-africa,Almohad ribat that became the capital of modern Morocco
tangier,Tangier,Tangier,35.7600,-5.8000,north-africa,Strait city ruled in turn by Rome Portugal England and Morocco
miletus,Miletus,Balat,37.5300,27.2800,anatolia,Chief Ionian city and the great mother-city of the Black Sea colonies
medina,Medina,Medina,24.4700,39.6100,arabia,Oasis of Yathrib and the first capital of Islam after the Hijra
mecca,Mecca,Mecca,21.4225,39.8262,arabia,Birthplace of Islam and its holiest city
riyadh,Riyadh,Riyadh,24.7100,46.6700,arabia,Najdi base of the Al Saud and capital of Saudi Arabia
kufa,Kufa,Kufa,32.0300,44.4000,mesopotamia-akkad,Early Islamic garrison city and caliphal capital under Ali
basra,Basra,Basra,30.5000,47.8200,mesopotamia-akkad,Garrison city and great port of early Islamic Iraq
mosul,Mosul,Mosul,36.3400,43.1300,mesopotamia-assyria,Tigris city across from ancient Nineveh; Hamdanid and Zengid seat
aleppo,Aleppo,Aleppo,36.2000,37.1600,levant-inland,Ancient Halab; Hamdanid and Ayyubid stronghold of northern Syria
isfahan,Isfahan,Isfahan,32.6500,51.6700,iran-zagros,Seljuk and Safavid capital famed for its great square
shiraz,Shiraz,Shiraz,29.6100,52.5400,iran-zagros,Capital of the Buyids and of Karim Khan's Zand dynasty
tehran,Tehran,Tehran,35.6900,51.3900,iran-zagros,Qajar capital grown into the megacity capital of Iran
berlin,Berlin,Berlin,52.5200,13.4050,germania,Brandenburg town that became the capital of Prussia and Germany
ankara,Ankara,Ankara,39.9300,32.8600,anatolia,Ancient Ancyra made the capital of the Turkish Republic
lhasa,Lhasa,Lhasa,29.6500,91.1400,steppe,Seat of the Tibetan Empire and of the Dalai Lamas
longcheng,Longcheng,Orkhon Valley,47.2000,102.8000,steppe,Ritual seat of the Xiongnu confederation
otuken,Otuken,Orkhon Valley,47.4000,102.9000,steppe,Sacred Orkhon heartland and seat of the Turk Khaganate
atil,Atil,Astrakhan,46.1000,47.9000,steppe,Khazar capital commanding the lower Volga trade
scythian-neapolis,Scythian Neapolis,Simferopol,44.9400,34.1000,pontic-steppe,Capital of the late Scythian kingdom in the Crimea
hun-camp,Hunnic Court,Hungarian Plain,47.0000,20.2000,europe-east,Attila's royal encampment on the Tisza plain
gyeongju,Gyeongju,Gyeongju,35.8560,129.2250,korea,Capital of Silla for nearly a millennium
seoul,Seoul,Seoul,37.5665,126.9780,korea,Baekje and Joseon capital and capital of South Korea
pyongyang,Pyongyang,Pyongyang,39.0390,125.7625,korea,Ancient Gojoseon and Goguryeo capital and capital of North Korea
kaesong,Kaesong,Kaesong,37.9700,126.5550,korea,Capital of the Goryeo dynasty
dali,Dali,Dali,25.6060,100.2670,china,Capital of Nanzhao and the Dali Kingdom in Yunnan
trowulan,Trowulan,Trowulan,-7.5500,112.3830,southeast-asia,Capital of the Majapahit empire in eastern Java
lopburi,Lopburi,Lopburi,14.8000,100.6500,southeast-asia,Dvaravati and Khmer city of the Chao Phraya basin
texcoco,Texcoco,Texcoco,19.5150,-98.8830,americas,Aztec Triple Alliance co-capital on Lake Texcoco
quito,Quito,Quito,-0.1800,-78.4670,americas,Northern Inca capital and capital of Ecuador
veii,Veii,Veio,42.0300,12.4000,italy,Great Etruscan city and early rival of Rome
tarquinia,Tarquinia,Tarquinia,42.2500,11.7560,italy,Leading city of the Etruscan League
sinope,Sinope,Sinop,42.0260,35.1510,anatolia,Black Sea port and capital of the Kingdom of Pontus
yerevan,Yerevan,Yerevan,40.1790,44.4990,caucasus,Urartian Erebuni and capital of modern Armenia
tbilisi,Tbilisi,Tbilisi,41.7150,44.8270,caucasus,Capital of the medieval and modern kingdom of Georgia
petra,Petra,Petra,30.3290,35.4440,levant-inland,Rock-cut capital of the Nabataean kingdom
palmyra,Palmyra,Tadmur,34.5520,38.2660,levant-inland,Caravan city and seat of Zenobia's Palmyrene Empire
ghazni,Ghazni,Ghazni,33.5500,68.4200,india,Capital of the Ghaznavid empire of Mahmud
ngazargamu,Ngazargamu,Ngazargamu,12.9000,10.4500,africa,Capital of the Kanem-Bornu empire near Lake Chad
oyo,Oyo-Ile,Oyo,8.9000,3.9000,africa,Capital of the Yoruba empire of Oyo
kumasi,Kumasi,Kumasi,6.6900,-1.6200,africa,Capital of the Ashanti empire of the Akan goldfields
ulundi,Ulundi,Ulundi,-28.3300,31.4200,africa,Royal capital of the Zulu kingdom
cape-town,Cape Town,Cape Town,-33.9250,18.4240,africa,Dutch and British Cape colony and a capital of South Africa
huari,Huari,Huari,-13.0470,-74.1900,americas,Capital of the Wari empire of the Andes
accra,Accra,Accra,5.5500,-0.2000,africa,Atlantic trade town and capital of Ghana
bamako,Bamako,Bamako,12.6400,-8.0000,africa,Niger River town and capital of modern Mali
lagos,Lagos,Lagos,6.4500,3.4000,africa,Lagoon port and the great megacity of Nigeria
nairobi,Nairobi,Nairobi,-1.2900,36.8200,africa,Railway town that became the capital of Kenya
dar-es-salaam,Dar es Salaam,Dar es Salaam,-6.7900,39.2100,africa,Indian Ocean port and chief city of Tanzania
addis-ababa,Addis Ababa,Addis Ababa,9.0300,38.7400,africa,Capital of the Ethiopian Empire and modern Ethiopia
ottawa,Ottawa,Ottawa,45.4200,-75.7000,americas,Capital of the Dominion of Canada
kabul,Kabul,Kabul,34.5300,69.1700,india,Hindu Kush city and capital of Afghanistan
islamabad,Islamabad,Islamabad,33.6900,73.0500,india,Purpose-built capital of Pakistan
beirut,Beirut,Beirut,33.8900,35.5000,levant-coast,Phoenician Berytus and capital of Lebanon
bangkok,Bangkok,Bangkok,13.7500,100.5000,southeast-asia,Rattanakosin capital of Siam and Thailand
jakarta,Jakarta,Jakarta,-6.2100,106.8500,southeast-asia,Dutch Batavia and capital of Indonesia
kuala-lumpur,Kuala Lumpur,Kuala Lumpur,3.1400,101.6900,southeast-asia,Tin-mining town and capital of Malaysia
ramallah,Ramallah,Ramallah,31.9000,35.2000,levant-inland,Administrative seat of the Palestinian Authority
amsterdam,Amsterdam,Amsterdam,52.3700,4.9000,germania,Trading heart of the Dutch empire and capital of the Netherlands
brussels,Brussels,Brussels,50.8500,4.3500,germania,Capital of Belgium and seat of its Congo empire
luxembourg,Luxembourg,Luxembourg,49.6100,6.1300,germania,Capital of the Grand Duchy of Luxembourg
bern,Bern,Bern,46.9500,7.4500,europe-central,Federal seat of Switzerland
stockholm,Stockholm,Stockholm,59.3300,18.0700,northern-europe,Capital of Sweden
oslo,Oslo,Oslo,59.9100,10.7500,northern-europe,Capital of Norway
copenhagen,Copenhagen,Copenhagen,55.6800,12.5700,northern-europe,Capital of Denmark
helsinki,Helsinki,Helsinki,60.1700,24.9400,northern-europe,Capital of Finland
reykjavik,Reykjavik,Reykjavik,64.1500,-21.9400,northern-europe,Capital of Iceland
kinshasa,Kinshasa,Kinshasa,-4.3200,15.3200,africa,Leopoldville and capital of the Democratic Republic of the Congo
lubumbashi,Lubumbashi,Lubumbashi,-11.6600,27.4800,africa,Copper-belt city of the Belgian Congo
bucharest,Bucharest,Bucharest,44.4300,26.1000,europe-east,Capital of Romania
minsk,Minsk,Minsk,53.9000,27.5700,europe-east,Capital of Belarus
bratislava,Bratislava,Bratislava,48.1500,17.1100,europe-central,Capital of Slovakia
ljubljana,Ljubljana,Ljubljana,46.0600,14.5100,europe-central,Capital of Slovenia
zagreb,Zagreb,Zagreb,45.8100,15.9800,europe-central,Capital of Croatia
sarajevo,Sarajevo,Sarajevo,43.8600,18.4100,europe-east,Capital of Bosnia and Herzegovina
skopje,Skopje,Skopje,41.9900,21.4300,europe-east,Capital of North Macedonia
tirana,Tirana,Tirana,41.3300,19.8200,europe-east,Capital of Albania
chisinau,Chisinau,Chisinau,47.0100,28.8600,europe-east,Capital of Moldova
riga,Riga,Riga,56.9500,24.1100,europe-east,Capital of Latvia
tallinn,Tallinn,Tallinn,59.4400,24.7500,europe-east,Capital of Estonia
nicosia,Nicosia,Nicosia,35.1700,33.3600,anatolia,Capital of Cyprus
valletta,Valletta,Valletta,35.9000,14.5100,italy,Fortress capital of the Knights of Malta and of Malta
bogota,Bogota,Bogota,4.6100,-74.0800,americas,Capital of Gran Colombia and of Colombia
caracas,Caracas,Caracas,10.4900,-66.8800,americas,Capital of Venezuela
santiago,Santiago,Santiago,-33.4500,-70.6700,americas,Capital of Chile
la-paz,La Paz,La Paz,-16.5000,-68.1500,americas,Seat of government of Bolivia
montevideo,Montevideo,Montevideo,-34.9000,-56.1900,americas,Capital of Uruguay
asuncion,Asuncion,Asuncion,-25.3000,-57.6300,americas,Capital of Paraguay
guatemala-city,Guatemala City,Guatemala City,14.6300,-90.5100,americas,Capital of Spanish Central America and of Guatemala
san-salvador,San Salvador,San Salvador,13.6900,-89.2200,americas,Capital of El Salvador
tegucigalpa,Tegucigalpa,Tegucigalpa,14.0700,-87.1900,americas,Capital of Honduras
managua,Managua,Managua,12.1100,-86.2400,americas,Capital of Nicaragua
san-jose,San Jose,San Jose,9.9300,-84.0800,americas,Capital of Costa Rica
panama-city,Panama City,Panama City,8.9800,-79.5200,americas,Capital of Panama
santo-domingo,Santo Domingo,Santo Domingo,18.4900,-69.9300,americas,Oldest European city in the Americas and capital of the Dominican Republic
port-au-prince,Port-au-Prince,Port-au-Prince,18.5900,-72.3100,americas,Capital of Haiti the first Black republic
kingston,Kingston,Kingston,17.9900,-76.7900,americas,Capital of Jamaica
toronto,Toronto,Toronto,43.6500,-79.3800,americas,Largest city of Canada
chicago,Chicago,Chicago,41.8800,-87.6300,americas,Great industrial metropolis of the American Midwest
los-angeles,Los Angeles,Los Angeles,34.0500,-118.2400,americas,Pacific megacity of the United States
dhaka,Dhaka,Dhaka,23.8100,90.4100,india,Mughal Bengal city and capital of Bangladesh
colombo,Colombo,Colombo,6.9300,79.8600,india,Colonial port and chief city of Sri Lanka
kathmandu,Kathmandu,Kathmandu,27.7000,85.3200,india,Capital of Nepal in the Himalaya
phnom-penh,Phnom Penh,Phnom Penh,11.5600,104.9200,southeast-asia,Capital of Cambodia after Angkor
vientiane,Vientiane,Vientiane,17.9700,102.6300,southeast-asia,Capital of Lan Xang and of Laos
yangon,Yangon,Yangon,16.8700,96.2000,southeast-asia,Konbaung port and chief city of Myanmar
ulaanbaatar,Ulaanbaatar,Ulaanbaatar,47.9200,106.9200,steppe,Capital of Mongolia
astana,Astana,Astana,51.1700,71.4300,steppe,Capital of Kazakhstan
bishkek,Bishkek,Bishkek,42.8700,74.5900,steppe,Capital of Kyrgyzstan
dushanbe,Dushanbe,Dushanbe,38.5600,68.7900,steppe,Capital of Tajikistan
ashgabat,Ashgabat,Ashgabat,37.9500,58.3800,steppe,Capital of Turkmenistan
baku,Baku,Baku,40.4100,49.8700,caucasus,Caspian oil city and capital of Azerbaijan
sanaa,Sanaa,Sanaa,15.3700,44.1900,arabia,Ancient highland city and capital of Yemen
muscat,Muscat,Muscat,23.5900,58.4100,arabia,Capital of the Omani empire and of Oman
doha,Doha,Doha,25.2900,51.5300,arabia,Capital of Qatar
abu-dhabi,Abu Dhabi,Abu Dhabi,24.4500,54.3800,arabia,Capital of the United Arab Emirates
dubai,Dubai,Dubai,25.2000,55.2700,arabia,Gulf trade megacity of the United Arab Emirates
kuwait-city,Kuwait City,Kuwait City,29.3800,47.9900,arabia,Capital of Kuwait
manama,Manama,Manama,26.2300,50.5900,arabia,Capital of Bahrain
amman,Amman,Amman,31.9500,35.9300,levant-inland,Ancient Philadelphia and capital of Jordan
khartoum,Khartoum,Khartoum,15.5000,32.5600,africa,Capital of Sudan at the Nile confluence
juba,Juba,Juba,4.8500,31.5800,africa,Capital of South Sudan
dakar,Dakar,Dakar,14.6900,-17.4400,africa,Atlantic port and capital of Senegal
abidjan,Abidjan,Abidjan,5.3600,-4.0100,africa,Chief city of Ivory Coast
conakry,Conakry,Conakry,9.5100,-13.7100,africa,Capital of Guinea
niamey,Niamey,Niamey,13.5100,2.1100,africa,Capital of Niger
ndjamena,N'Djamena,N'Djamena,12.1300,15.0600,africa,Capital of Chad
yaounde,Yaounde,Yaounde,3.8500,11.5000,africa,Capital of Cameroon
libreville,Libreville,Libreville,0.4200,9.4700,africa,Capital of Gabon
bangui,Bangui,Bangui,4.3600,18.5600,africa,Capital of the Central African Republic
brazzaville,Brazzaville,Brazzaville,-4.2700,15.2800,africa,Capital of the Republic of the Congo
kampala,Kampala,Kampala,0.3500,32.5800,africa,Capital of Uganda
kigali,Kigali,Kigali,-1.9500,30.0600,africa,Capital of Rwanda
bujumbura,Bujumbura,Bujumbura,-3.3800,29.3600,africa,Largest city of Burundi
lusaka,Lusaka,Lusaka,-15.4200,28.2800,africa,Capital of Zambia
harare,Harare,Harare,-17.8300,31.0500,africa,Capital of Zimbabwe
lilongwe,Lilongwe,Lilongwe,-13.9800,33.7900,africa,Capital of Malawi
maputo,Maputo,Maputo,-25.9700,32.5800,africa,Capital of Mozambique
antananarivo,Antananarivo,Antananarivo,-18.8800,47.5100,africa,Merina royal city and capital of Madagascar
windhoek,Windhoek,Windhoek,-22.5700,17.0800,africa,Capital of Namibia
gaborone,Gaborone,Gaborone,-24.6500,25.9100,africa,Capital of Botswana
johannesburg,Johannesburg,Johannesburg,-26.2000,28.0500,africa,Gold-rush metropolis of South Africa
asmara,Asmara,Asmara,15.3400,38.9300,africa,Italian colonial city and capital of Eritrea
nouakchott,Nouakchott,Nouakchott,18.0900,-15.9800,africa,Capital of Mauritania
cotonou,Cotonou,Cotonou,6.3700,2.4200,africa,Chief city of the Republic of Benin
lome,Lome,Lome,6.1700,1.2300,africa,Capital of Togo
freetown,Freetown,Freetown,8.4800,-13.2300,africa,Freed-slave settlement and capital of Sierra Leone
monrovia,Monrovia,Monrovia,6.3000,-10.8000,africa,Capital of Liberia founded by freed American slaves
canberra,Canberra,Canberra,-35.2800,149.1300,oceania,Purpose-built capital of Australia
sydney,Sydney,Sydney,-33.8700,151.2100,oceania,First British settlement and largest city of Australia
melbourne,Melbourne,Melbourne,-37.8100,144.9600,oceania,Major metropolis of southern Australia
wellington,Wellington,Wellington,-41.2900,174.7800,oceania,Capital of New Zealand
auckland,Auckland,Auckland,-36.8500,174.7600,oceania,Largest city of New Zealand
port-moresby,Port Moresby,Port Moresby,-9.4400,147.1800,oceania,Capital of Papua New Guinea
suva,Suva,Suva,-18.1400,178.4400,oceania,Capital of Fiji
honolulu,Honolulu,Honolulu,21.3100,-157.8600,oceania,Capital of the Kingdom of Hawaii and chief city of Hawaii
wuhan,Wuhan,Wuhan,30.5900,114.3000,china,Trip-city of the Yangtze and cradle of the 1911 revolution
chongqing,Chongqing,Chongqing,29.5600,106.5500,china,Wartime capital of Nationalist China and a vast Yangtze metropolis
tianjin,Tianjin,Tianjin,39.1300,117.2000,china,Treaty port and great northern harbor near Beijing
shenyang,Shenyang,Shenyang,41.8000,123.4300,china,Mukden the early Manchu capital of the Qing
harbin,Harbin,Harbin,45.8000,126.5300,china,Russian railway city of Manchuria
nagoya,Nagoya,Nagoya,35.1800,136.9100,japan,Castle city of the Owari Tokugawa and an industrial metropolis
hiroshima,Hiroshima,Hiroshima,34.3900,132.4600,japan,Castle town destroyed by the atomic bomb in 1945
sapporo,Sapporo,Sapporo,43.0600,141.3500,japan,Capital of Hokkaido settled in the Meiji era
hue,Hue,Hue,16.4600,107.5900,southeast-asia,Capital of the Nguyen dynasty and imperial Vietnam
ho-chi-minh-city,Saigon,Ho Chi Minh City,10.8200,106.6300,southeast-asia,Saigon the southern metropolis of Vietnam
busan,Busan,Busan,35.1800,129.0800,korea,Great southern port of Korea
incheon,Incheon,Incheon,37.4600,126.7100,korea,Port city west of Seoul
chiang-mai,Chiang Mai,Chiang Mai,18.7900,98.9900,southeast-asia,Capital of the Lan Na kingdom of northern Thailand
mandalay,Mandalay,Mandalay,21.9800,96.0800,southeast-asia,Last royal capital of Konbaung Burma
bago,Bago,Bago,17.3400,96.4800,southeast-asia,Pegu the capital of the Mon Hanthawaddy kingdom
ava,Ava,Inwa,21.8500,95.9800,southeast-asia,Inwa the long-time royal capital of Burma
naukratis,Naukratis,Kom Gieif,30.9000,30.5900,egypt-lower,The great Greek emporion in Saite Egypt
emporion,Emporion,Empuries,42.1300,3.1200,iberia,A Phocaean trading emporion on the Iberian coast
pithekoussai,Pithekoussai,Ischia,40.7400,13.9500,italy,The earliest Greek emporion in the west on Ischia
cumae,Cumae,Cuma,40.8500,14.0500,italy,The first Greek colony on the Italian mainland
al-mina,Al-Mina,Al-Mina,36.1000,35.9300,levant-coast,An early Greek-Levantine emporion at the Orontes mouth
trapezus,Trapezus,Trabzon,41.0000,39.7200,anatolia,Milesian Black Sea colony and capital of the Empire of Trebizond
akragas,Akragas,Agrigento,37.3100,13.5800,italy,A wealthy Greek colony of southern Sicily
sybaris,Sybaris,Sibari,39.7100,16.5000,italy,A famously wealthy Achaean colony of Magna Graecia
antioch,Antioch,Antakya,36.2000,36.1600,levant-coast,Seleucid capital and one of the great cities of the Roman and Byzantine East
seleucia,Seleucia,Tell Umar,33.0900,44.5200,mesopotamia-akkad,Eastern capital of the Seleucid Empire on the Tigris
ctesiphon,Ctesiphon,Salman Pak,33.0900,44.5800,mesopotamia-akkad,Capital of the Parthian and Sasanian empires
baghdad,Baghdad,Baghdad,33.3150,44.3660,mesopotamia-akkad,Round-city capital of the Abbasid Caliphate; later capital of Iraq
anyang,Anyang,Anyang,36.1000,114.3500,china,Last capital of the Shang dynasty; source of the oracle bones
changan,Chang'an,Xi'an,34.2700,108.9500,china,Capital of the Han and Tang dynasties; eastern terminus of the Silk Road
luoyang,Luoyang,Luoyang,34.6200,112.4500,china,Ritual center and capital of many dynasties on the Yellow River
kaifeng,Kaifeng,Kaifeng,34.8000,114.3000,china,Capital of the Northern Song; among the largest cities of its day
hangzhou,Hangzhou,Hangzhou,30.2700,120.1500,china,Capital of the Southern Song; Marco Polo's Quinsai
nanjing,Nanjing,Nanjing,32.0600,118.8000,china,Southern capital of many Chinese states; the first Ming capital
beijing,Beijing,Beijing,39.9000,116.4000,china,Yuan Ming Qing and modern capital; the Forbidden City
guangzhou,Guangzhou,Guangzhou,23.1300,113.2600,china,Ancient Canton; China's great southern trade port
angkor,Angkor,Angkor,13.4100,103.8600,southeast-asia,Capital of the Khmer Empire; among the largest preindustrial cities
bagan,Bagan,Bagan,21.1700,94.8600,southeast-asia,Capital of the Pagan Kingdom of Burma; a city of temples
ayutthaya,Ayutthaya,Ayutthaya,14.3500,100.5700,southeast-asia,Capital of the Siamese kingdom of Ayutthaya
palembang,Palembang,Palembang,-2.9900,104.7600,southeast-asia,Capital of the maritime empire of Srivijaya on Sumatra
thanglong,Thang Long,Hanoi,21.0300,105.8500,southeast-asia,Capital of Dai Viet; the future Hanoi
malacca,Malacca,Melaka,2.1900,102.2500,southeast-asia,Capital of the Malacca Sultanate; a great trade emporium
karakorum,Karakorum,Kharkhorin,47.2000,102.8300,steppe,Capital of the Mongol Empire under Ogedei Khan
samarkand,Samarkand,Samarkand,39.6500,66.9600,steppe,Sogdian Silk Road city; capital of the Timurid Empire
bukhara,Bukhara,Bukhara,39.7700,64.4200,steppe,Silk Road city and capital of the Samanid Empire
merv,Merv,Mary,37.6600,62.1900,steppe,Great Silk Road oasis city; annihilated by the Mongols
sarai,Sarai,Selitrennoye,48.5000,45.0000,steppe,Capital of the Golden Horde on the Volga
nara,Nara,Nara,34.6800,135.8000,japan,First permanent imperial capital of Japan (Heijo-kyo)
kyoto,Kyoto,Kyoto,35.0100,135.7700,japan,Imperial capital of Japan for over a millennium (Heian-kyo)
kamakura,Kamakura,Kamakura,35.3200,139.5500,japan,Seat of the first shogunate
edo,Edo,Tokyo,35.6800,139.6500,japan,Tokugawa shogunal seat then imperial capital; modern Tokyo
osaka,Osaka,Osaka,34.6900,135.5000,japan,Ancient Naniwa; a great merchant city and port
aksum,Aksum,Axum,14.1300,38.7200,africa,Capital of the Aksumite Empire; an early Christian trading power
djenne,Djenne,Djenne,13.9000,-4.5500,africa,Among the oldest urban sites in sub-Saharan Africa; a Niger trade city
timbuktu,Timbuktu,Timbuktu,16.7700,-3.0100,africa,Saharan trade and learning city of the Mali and Songhai empires
gao,Gao,Gao,16.2700,-0.0400,africa,Capital of the Songhai Empire on the Niger
ife,Ife,Ile-Ife,7.4700,4.5600,africa,Holy city of the Yoruba; famed for its bronze and terracotta heads
benin,Benin City,Benin City,6.3400,5.6200,africa,Capital of the Kingdom of Benin; its walls and bronzes
zimbabwe,Great Zimbabwe,Great Zimbabwe,-20.2700,30.9300,africa,Stone capital of the Kingdom of Zimbabwe
kilwa,Kilwa,Kilwa Kisiwani,-8.9600,39.5100,africa,Swahili coast sultanate and Indian Ocean trade hub
kongo,Mbanza Kongo,Mbanza-Kongo,-6.2700,14.2400,africa,Capital of the Kingdom of Kongo
caral,Caral,Caral,-10.8900,-77.5200,americas,The oldest known city in the Americas (Norte Chico)
teotihuacan,Teotihuacan,Teotihuacan,19.6900,-98.8400,americas,The greatest city of ancient Mesoamerica
tikal,Tikal,Tikal,17.2200,-89.6200,americas,A great Classic Maya city-state
monte-alban,Monte Alban,Monte Alban,17.0400,-96.7700,americas,Zapotec capital in the Oaxaca valley
chichen-itza,Chichen Itza,Chichen Itza,20.6800,-88.5700,americas,Maya-Toltec city of the northern Yucatan
tenochtitlan,Tenochtitlan,Mexico City,19.4300,-99.1300,americas,Capital of the Aztec Empire; the future Mexico City
cusco,Cusco,Cusco,-13.5300,-71.9700,americas,Capital of the Inca Empire
cahokia,Cahokia,Cahokia,38.6600,-90.0600,americas,Largest pre-Columbian city north of Mexico
prague,Prague,Prague,50.0900,14.4200,europe-central,Capital of Bohemia and a seat of the Holy Roman Empire
vienna,Vienna,Vienna,48.2100,16.3700,europe-central,Habsburg capital and a bulwark against the Ottomans
krakow,Krakow,Krakow,50.0600,19.9400,europe-central,Royal capital of medieval Poland
buda,Buda,Budapest,47.5000,19.0400,europe-central,Capital of the kingdom of Hungary
kiev,Kiev,Kyiv,50.4500,30.5200,europe-east,Capital of Kievan Rus; sacked by the Mongols
novgorod,Novgorod,Veliky Novgorod,58.5200,31.2700,europe-east,Merchant republic of the medieval Russian north
moscow,Moscow,Moscow,55.7500,37.6200,europe-east,Capital of the Tsardom of Russia and modern Russia
venice,Venice,Venice,45.4400,12.3300,italy,Maritime republic that dominated Mediterranean trade
florence,Florence,Florence,43.7700,11.2500,italy,Banking city and cradle of the Renaissance
palermo,Palermo,Palermo,38.1200,13.3600,italy,Capital of Arab and then Norman Sicily
pompeii,Pompeii,Pompei,40.7500,14.4900,italy,Roman town buried by Vesuvius in 79 CE
granada,Granada,Granada,37.1800,-3.6000,iberia,Last Muslim capital in Iberia; the Alhambra
seville,Seville,Seville,37.3900,-5.9900,iberia,Almohad capital and later a Castilian metropolis
lisbon,Lisbon,Lisbon,38.7200,-9.1400,iberia,Capital of Portugal and its seaborne empire
pergamon,Pergamon,Bergama,39.1300,27.1800,anatolia,Capital of the Attalid kingdom; bequeathed to Rome
konya,Konya,Konya,37.8700,32.4800,anatolia,Capital of the Seljuk Sultanate of Rum
nicaea,Nicaea,Iznik,40.4300,29.7200,anatolia,Site of the church councils; a Byzantine imperial refuge
rhodes,Rhodes,Rhodes,36.4400,28.2200,greece,Hellenistic naval power; the Colossus
aachen,Aachen,Aachen,50.7800,6.0800,germania,Charlemagne's capital and Carolingian heart
thanjavur,Thanjavur,Thanjavur,10.7900,79.1400,india,Capital of the Chola Empire; the great Brihadeeswara temple
vijayanagara,Vijayanagara,Hampi,15.3400,76.4600,india,Capital of the Vijayanagara Empire of southern India
lahore,Lahore,Lahore,31.5800,74.3300,india,A great Mughal capital on the Punjab
mumbai,Mumbai,Mumbai,19.0800,72.8800,india,Colonial Bombay grown into a modern megacity
quanzhou,Quanzhou,Quanzhou,24.8700,118.6800,china,Zaitun; the great medieval port of maritime China
shanghai,Shanghai,Shanghai,31.2300,121.4700,china,Treaty port grown into the largest Chinese city
sukhothai,Sukhothai,Sukhothai,17.0200,99.7000,southeast-asia,First Thai kingdom before Ayutthaya
vijaya,Vijaya,Binh Dinh,13.9300,109.1100,southeast-asia,Capital of the Cham kingdom of Champa
manila,Manila,Manila,14.6000,120.9800,southeast-asia,Spanish colonial capital of the Philippines
tabriz,Tabriz,Tabriz,38.0800,46.2900,steppe,Capital of the Ilkhanate and later Iranian dynasties
balkh,Balkh,Balkh,36.7600,66.9000,steppe,Ancient Bactria; mother of cities on the Silk Road
herat,Herat,Herat,34.3500,62.2000,steppe,Timurid cultural capital of Khorasan
kano,Kano,Kano,12.0000,8.5200,africa,Hausa city-state and trans-Saharan trade hub
mogadishu,Mogadishu,Mogadishu,2.0400,45.3400,africa,Medieval Swahili-Somali trade city on the Indian Ocean
tiwanaku,Tiwanaku,Tiwanaku,-16.5500,-68.6700,americas,Andean ceremonial capital by Lake Titicaca
chan-chan,Chan Chan,Chan Chan,-8.1100,-79.0700,americas,Capital of the Chimu; the largest adobe city in the Americas
tula,Tula,Tula,20.0600,-99.3400,americas,Capital of the Toltecs
lima,Lima,Lima,-12.0500,-77.0400,americas,Capital of Spanish Peru and modern Peru
dunhuang,Dunhuang,Dunhuang,40.1400,94.6600,china,Silk Road oasis and the Mogao Buddhist caves
kashgar,Kashgar,Kashgar,39.4700,75.9900,china,Westernmost Silk Road city of the Tarim Basin
turpan,Turpan,Turpan,42.9500,89.1800,china,The Gaochang oasis on the northern Silk Road
khotan,Khotan,Hotan,37.1100,79.9300,china,Southern Tarim kingdom famed for jade and early Buddhism
kucha,Kucha,Kuqa,41.7200,82.9600,china,Tocharian Buddhist kingdom of the northern Tarim
otrar,Otrar,Otrar,42.8500,68.3000,steppe,Syr Darya trade city; spark of the Mongol invasion
nishapur,Nishapur,Nishapur,36.2100,58.8000,steppe,Great city of Khorasan; annihilated by the Mongols
urgench,Urgench,Konye-Urgench,42.3300,59.1500,steppe,Capital of Khwarezm on the Amu Darya
tashkent,Tashkent,Tashkent,41.3100,69.2800,steppe,Silk Road city of Chach; modern capital of Uzbekistan
cairo,Cairo,Cairo,30.0400,31.2400,egypt-lower,Fustat then Cairo; Fatimid Mamluk and modern Egyptian capital
fez,Fez,Fes,34.0300,-5.0000,north-africa,Idrisid and Marinid capital of Morocco; the Qarawiyyin
marrakesh,Marrakesh,Marrakesh,31.6300,-8.0100,north-africa,Almoravid Almohad and Saadi capital of Morocco
volubilis,Volubilis,Volubilis,34.0700,-5.5500,north-africa,Roman city of Mauretania Tingitana
sijilmasa,Sijilmasa,Rissani,31.2800,-4.2800,north-africa,Saharan gateway of the West African gold trade
kairouan,Kairouan,Kairouan,35.6800,10.1000,north-africa,First Arab city in the Maghreb; Aghlabid capital and holy city
tunis,Tunis,Tunis,36.8000,10.1800,north-africa,Hafsid capital that succeeded Carthage; modern Tunisia
cirta,Cirta,Constantine,36.3600,6.6100,north-africa,Numidian royal capital; later Roman Constantine
tlemcen,Tlemcen,Tlemcen,34.8800,-1.3100,north-africa,Capital of the Zayyanid kingdom of the central Maghreb
algiers,Algiers,Algiers,36.7500,3.0600,north-africa,Ottoman corsair capital; modern Algeria
tripoli,Tripoli,Tripoli,32.8900,13.1900,north-africa,Ancient Oea; Ottoman and modern Libyan capital
niani,Niani,Niani,11.3900,-8.4000,africa,Capital of the Mali Empire under Mansa Musa
koumbi,Koumbi Saleh,Koumbi Saleh,15.7700,-8.0000,africa,Capital of the Ghana Empire; first of the great Sahel states
mombasa,Mombasa,Mombasa,-4.0500,39.6600,africa,Swahili port city of the East African coast
zanzibar,Zanzibar,Zanzibar City,-6.1600,39.1900,africa,Stone Town; capital of the Omani sultanate of Zanzibar
sofala,Sofala,Nova Sofala,-20.1700,34.7300,africa,Gold-trade port linking Great Zimbabwe to the Indian Ocean
gondar,Gondar,Gondar,12.6000,37.4700,africa,Imperial capital of Ethiopia; the castles of the Solomonic kings
harar,Harar,Harar,9.3100,42.1200,africa,Walled Islamic trading city of the Horn
lalibela,Lalibela,Lalibela,12.0300,39.0400,africa,Zagwe capital of Ethiopia; the rock-hewn churches
luanda,Luanda,Luanda,-8.8400,13.2300,africa,Portuguese Atlantic trade port; modern capital of Angola
delphi,Delphi,Delphi,38.4800,22.5000,greece,Pan-Hellenic sanctuary and oracle of Apollo
olympia,Olympia,Olympia,37.6400,21.6300,greece,Sanctuary of Zeus and home of the Olympic Games
pylos,Pylos,Pylos,36.9100,21.7000,greece,Mycenaean palace of Nestor on the Bay of Navarino
larissa,Larissa,Larissa,39.6400,22.4200,greece,Chief city of Thessaly; continuously inhabited
eretria,Eretria,Eretria,38.4000,23.7900,greece,Euboean trading city and early Greek colonizer
new-york,New York,New York,40.7100,-74.0100,americas,New Amsterdam then New York; the great American metropolis
washington,Washington,Washington,38.9000,-77.0400,americas,Capital of the United States
boston,Boston,Boston,42.3600,-71.0600,americas,Puritan city and cradle of the American Revolution
quebec,Quebec,Quebec City,46.8100,-71.2100,americas,Capital of New France; gateway to Canada
havana,Havana,Havana,23.1100,-82.3700,americas,Spanish Caribbean stronghold; capital of Cuba
chengdu,Chengdu,Chengdu,30.6600,104.0700,china,Capital of Shu; a great city of the Sichuan basin
xingqing,Xingqing,Yinchuan,38.4900,106.2300,china,Capital of Western Xia; modern Yinchuan
datong,Datong,Datong,40.0900,113.3000,china,Pingcheng; capital of the Northern Wei and a Liao western capital
liaoyang,Liaoyang,Liaoyang,41.2700,123.1800,china,Eastern capital of the Liao in the northeast
dading,Dading,Ningcheng,41.6000,119.4000,china,Central capital of the Jurchen Jin
hongkong,Hong Kong,Hong Kong,22.3200,114.1700,china,British colonial port returned to China
avarga,Avarga,Avarga,47.2000,109.0000,steppe,Genghis Khan's base camp; the Mongol Empire's first seat
hedeby,Hedeby,Hedeby,54.4900,9.5600,northern-europe,Great Viking-age trade emporium of the Danes
birka,Birka,Bjorko,59.3400,17.5400,northern-europe,Viking-age trading town of the Swedes
dublin,Dublin,Dublin,53.3500,-6.2600,northern-europe,Norse longphort that became the capital of Ireland
madrid,Madrid,Madrid,40.4200,-3.7000,iberia,Castilian fortress town that became the capital of Spain
peshawar,Purushapura,Peshawar,34.0080,71.5785,india,Kushan capital of Gandhara guarding the Khyber Pass
multan,Multan,Multan,30.1980,71.4710,india,Ancient Indus city of the sun temple and later Sufi shrines
kanchipuram,Kanchipuram,Kanchipuram,12.8350,79.7040,india,Pallava capital and great temple city of the Tamil country
anuradhapura,Anuradhapura,Anuradhapura,8.3114,80.4037,india,The ancient Buddhist royal capital of Sri Lanka
hyderabad,Hyderabad,Hyderabad,17.3850,78.4867,india,Qutb Shahi foundation and seat of the Nizams of the Deccan
surat,Surat,Surat,21.1700,72.8310,india,Great Mughal port of Gujarat and early European trading hub
amritsar,Amritsar,Amritsar,31.6340,74.8723,india,Holy city of the Sikhs and seat of the Golden Temple
chennai,Madras,Chennai,13.0827,80.2707,india,British Fort St George that grew into a southern metropolis
rey,Rhages,Ray,35.5900,51.4300,iran-zagros,Ancient Median city near modern Tehran razed by the Mongols
aden,Aden,Aden,12.7900,45.0300,arabia,Great natural harbor and trading port of southern Arabia
gaza,Gaza,Gaza,31.5000,34.4700,levant-inland,Ancient Canaanite and Philistine city on the coastal road
izmir,Smyrna,Izmir,38.4200,27.1400,anatolia,Ionian Greek port and great city of the Aegean coast
acre,Akko,Acre,32.9200,35.0700,levant-coast,Phoenician port and chief stronghold of the Crusader kingdom
suzhou,Suzhou,Suzhou,31.2990,120.5850,china,Canal city of the lower Yangtze famed for gardens and silk
ningbo,Ningbo,Ningbo,29.8680,121.5440,china,Great port of Zhejiang on the East China Sea
taiyuan,Taiyuan,Taiyuan,37.8700,112.5500,china,Fortress city of Shanxi long guarding the northern frontier
fuzhou,Fuzhou,Fuzhou,26.0740,119.2960,china,Maritime trade capital of Fujian
nagasaki,Nagasaki,Nagasaki,32.7500,129.8770,japan,Port that was Japan's window on the world during the closed centuries
kanazawa,Kanazawa,Kanazawa,36.5610,136.6560,japan,Castle town of the powerful Maeda domain
kagoshima,Kagoshima,Kagoshima,31.5970,130.5570,japan,Castle town of the Shimazu lords of Satsuma
sendai,Sendai,Sendai,38.2680,140.8690,japan,Castle town of the Date domain of the northeast
jeonju,Jeonju,Jeonju,35.8240,127.1480,korea,Ancestral seat of the Joseon royal house
daegu,Daegu,Daegu,35.8710,128.6010,korea,Inland commercial city of the Korean southeast
hamhung,Hamhung,Hamhung,39.9180,127.5360,korea,Northeastern city and a base of the early Joseon founders
surabaya,Surabaya,Surabaya,-7.2580,112.7520,southeast-asia,Great port of eastern Java
luang-prabang,Luang Prabang,Luang Prabang,19.8860,102.1350,southeast-asia,Royal capital of the Lao kingdom of Lan Xang
makassar,Makassar,Makassar,-5.1480,119.4320,southeast-asia,Spice-trade port and seat of the Gowa sultanate on Sulawesi
cebu,Cebu,Cebu,10.3160,123.8850,southeast-asia,Visayan trading port and the first Spanish foothold in the Philippines
oc-eo,Oc Eo,Oc Eo,10.2300,105.1500,southeast-asia,Great port of the Funan kingdom in the Mekong delta
maragheh,Maragheh,Maragheh,37.3900,46.2400,iran-zagros,First Ilkhanid capital and site of Nasir al-Din al-Tusi's observatory
sultaniyya,Sultaniyya,Soltaniyeh,36.4300,48.7950,iran-zagros,Ilkhanid capital of Oljaitu famed for its great dome
almaliq,Almaliq,Almalik,43.9000,81.3000,steppe,Capital of the Chagatai Khanate in the Ili valley
shangdu,Shangdu,Xanadu,42.3580,116.1800,china,Kublai Khan's summer capital; Marco Polo's Xanadu
bolghar,Bolghar,Bolgar,54.9800,49.0300,steppe,Capital of Volga Bulgaria and an early Golden Horde seat
astrakhan,Astrakhan,Astrakhan,46.3500,48.0400,steppe,Lower-Volga city of the Golden Horde and its successor khanate
caffa,Caffa,Feodosia,45.0300,35.3800,pontic-steppe,Genoese Black Sea trade colony in the Golden Horde sphere
vladimir,Vladimir,Vladimir,56.1300,40.4000,europe-east,Senior Rus principality under the Golden Horde yoke
carchemish,Carchemish,Karkamis,36.8300,38.0100,levant-inland,Bronze Age city and Hittite viceroyalty on the Euphrates
tushpa,Tushpa,Van,38.5000,43.4000,anatolia,Capital of the kingdom of Urartu by Lake Van
samaria,Samaria,Sebastia,32.2800,35.1900,levant-inland,Capital of the kingdom of Israel; rebuilt by Herod as Sebaste
tarsus,Tarsus,Tarsus,36.9200,34.8950,anatolia,Cilician city of Hittite Kizzuwatna and birthplace of St Paul
nicomedia,Nicomedia,Izmit,40.7650,29.9400,anatolia,Bithynian capital and Diocletian's eastern Roman capital
hazor,Hazor,Tel Hazor,33.0170,35.5680,levant-inland,Largest Canaanite city-state; later destroyed by Assyria
hegra,Hegra,Mada'in Salih,26.7900,37.9500,arabia,Second city of the Nabataeans with rock-cut tombs on the incense road
dadan,Dadan,Al-Ula,26.6160,37.9200,arabia,Capital of the Dadanite and Lihyanite kingdoms of northwest Arabia
tayma,Tayma,Tayma,27.6300,38.4800,arabia,Ancient oasis where the Babylonian king Nabonidus resided a decade
marib,Marib,Marib,15.4200,45.3300,arabia,Capital of Saba and site of the Great Dam
shabwa,Shabwa,Shabwa,15.3700,47.0100,arabia,Capital of the Hadramawt kingdom on the incense route
sohar,Sohar,Sohar,24.3500,56.7100,arabia,Great medieval Omani port and gateway of Indian Ocean trade
mleiha,Mleiha,Mleiha,25.1300,55.8500,arabia,Pre-Islamic caravan center of the Oman peninsula
najran,Najran,Najran,17.4900,44.1300,arabia,Oasis of the Christian martyrs on the Yemeni frontier
qaryat-al-faw,Qaryat al-Faw,Qaryat al-Faw,19.7500,45.1800,arabia,Caravan capital of the kingdom of Kindah
dvin,Dvin,Dvin,40.0000,44.5800,caucasus,Long-time capital of medieval Armenia
ani,Ani,Ani,40.5070,43.5720,caucasus,Bagratid Armenian capital famed as the city of a thousand churches
derbent,Derbent,Derbent,42.0600,48.2900,caucasus,The Caspian Gates; Sasanian wall-fortress guarding the steppe
chavin,Chavin de Huantar,Chavin,-9.5900,-77.1800,americas,The great early Andean religious center
cajamarca,Cajamarca,Cajamarca,-7.1600,-78.5100,americas,Andean highland city where Pizarro seized the Inca Atahualpa
pachacamac,Pachacamac,Pachacamac,-12.2600,-76.9000,americas,Great coastal oracle and pilgrimage center near Lima
palenque,Palenque,Palenque,17.4830,-92.0460,americas,Classic Maya city of Pakal in the western lowlands
calakmul,Calakmul,Calakmul,18.1050,-89.8110,americas,Maya superpower and great rival of Tikal
copan,Copan,Copan,14.8400,-89.1400,americas,Classic Maya capital of the southeast and its sculpture
sri-ksetra,Sri Ksetra,Pyay,18.8100,95.2900,southeast-asia,Greatest of the Pyu city-states of early Burma
yogyakarta,Yogyakarta,Yogyakarta,-7.8000,110.3600,southeast-asia,Heart of the Medang and Mataram kingdoms; Borobudur and Prambanan
kedah,Kedah,Kedah,6.1200,100.3700,southeast-asia,Ancient Indianized port of the Bujang Valley on the Malay isthmus
indrapura,Indrapura,Dong Duong,15.7800,108.3400,southeast-asia,Northern capital of Champa near the Cham temples of My Son
mashhad,Mashhad,Mashhad,36.3000,59.6100,iran-zagros,Great Khorasan city grown around the shrine of Imam Reza
yazd,Yazd,Yazd,31.9000,54.3700,iran-zagros,Desert oasis and stronghold of Zoroastrian Persia
qom,Qom,Qom,34.6400,50.8800,iran-zagros,Shia holy city of the shrine of Fatima Masumeh
qazvin,Qazvin,Qazvin,36.2700,50.0000,iran-zagros,A Safavid capital before the move to Isfahan
khiva,Khiva,Khiva,41.3800,60.3600,steppe,Khwarezm oasis and capital of the Khanate of Khiva
kokand,Kokand,Kokand,40.5200,70.9400,steppe,Capital of the Khanate of Kokand in the Fergana valley
termez,Termez,Termez,37.2200,67.2800,steppe,Ancient Oxus city and Buddhist center of Bactria
zafar,Zafar,Zafar,14.2100,44.4000,arabia,Highland capital of the Himyarite kingdom
timna,Timna,Timna,15.0000,45.8500,arabia,Capital of the incense kingdom of Qataban
qana,Qana,Bir Ali,14.0000,48.3000,arabia,Frankincense port of the Hadramawt kingdom
sirwah,Sirwah,Sirwah,15.4300,45.0000,arabia,Early capital of Saba west of Marib
benin-city,Benin City,Benin City,6.3400,5.6200,africa,Walled capital of the Kingdom of Benin famed for its bronzes
mapungubwe,Mapungubwe,Mapungubwe,-22.1900,29.3900,africa,First great kingdom of southern Africa before Great Zimbabwe
nan-madol,Nan Madol,Nan Madol,6.8420,158.3340,oceania,Megalithic island capital of the Saudeleur dynasty of Pohnpei
mua,Mua,Lapaha,-21.1880,-175.0760,oceania,Capital of the Tui Tonga maritime empire
rapa-nui,Rapa Nui,Easter Island,-27.1130,-109.3500,oceania,Remote Polynesian island of the moai statues
chaco-canyon,Chaco Canyon,Chaco Canyon,36.0610,-107.9560,americas,Ancestral Puebloan ceremonial center of the great houses
mesa-verde,Mesa Verde,Mesa Verde,37.2310,-108.4620,americas,Ancestral Puebloan cliff-dwelling center of the Colorado plateau
moundville,Moundville,Moundville,32.9980,-87.6300,americas,Major Mississippian mound center on the Black Warrior River
bigo,Bigo,Bigo bya Mugenyi,0.5000,31.5000,africa,Great earthworks capital of the Kitara empire of the Great Lakes
musumba,Musumba,Musumba,-10.8000,22.4000,africa,Capital of the Lunda Empire of the central African savanna
kuba,Nsheng,Mushenge,-4.6000,22.4000,africa,Royal capital of the Kuba Kingdom famed for its art
ordu-baliq,Ordu-Baliq,Karabalgasun,47.4200,102.6600,steppe,Capital of the Uyghur Khaganate in the Orkhon valley
tobolsk,Tobolsk,Tobolsk,58.2000,68.2500,steppe,Gateway of the Russian conquest of Siberia
yakutsk,Yakutsk,Yakutsk,62.0300,129.7300,steppe,Russian fort that opened the far northeast of Siberia
irkutsk,Irkutsk,Irkutsk,52.2900,104.3000,steppe,Russian city of Lake Baikal on the road to China
meknes,Meknes,Meknes,33.8935,-5.5473,north-africa,Imperial city of Morocco; Moulay Ismail's Alaouite capital
chellah,Chellah,Chellah,34.0050,-6.8214,north-africa,Roman Sala Colonia and later the Marinid royal necropolis at Rabat
ait-ben-haddou,Ait Ben Haddou,Ait Ben Haddou,31.0472,-7.1318,north-africa,Earthen ksar on the Marrakesh-Sahara caravan route; a UNESCO World Heritage site
lamu,Lamu,Lamu,-2.2717,40.9020,africa,Swahili stone-town of the Lamu archipelago
malindi,Malindi,Malindi,-3.2138,40.1169,africa,Swahili port where Vasco da Gama found his pilot to India
gede,Gede,Gedi Ruins,-3.3081,40.0161,africa,Ruined Swahili stone-town mysteriously abandoned in the 17th century
pate,Pate,Pate,-2.0947,41.0470,africa,Swahili sultanate of the Lamu archipelago
manda,Manda,Manda,-2.2830,40.9667,africa,One of the earliest Swahili stone-towns of the East African coast
shanga,Shanga,Shanga,-2.1167,41.0167,africa,Early Swahili settlement with some of the oldest coastal mosques
barawa,Barawa,Baraawe,1.1031,44.0289,africa,Swahili-Somali town of the Benadir coast
adulis,Adulis,Adulis,15.2622,39.6589,africa,Red Sea port of the Aksumite kingdom
zeila,Zeila,Saylac,11.3567,43.4733,africa,Medieval Islamic port and gateway to the Ethiopian interior
suakin,Suakin,Suakin,19.1050,37.3389,africa,Coral-built Ottoman Red Sea port of Sudan
aydhab,Aydhab,Aydhab,22.3331,36.4900,africa,Medieval Red Sea pilgrimage and India-trade port
massawa,Massawa,Massawa,15.6097,39.4744,africa,Red Sea port serving the Ethiopian highlands
berbera,Berbera,Berbera,10.4396,45.0143,africa,Gulf of Aden port and capital of British Somaliland
mahdia,Mahdia,Mahdia,35.5047,11.0622,north-africa,First Fatimid capital; a fortified Tunisian port
ceuta,Ceuta,Ceuta,35.8894,-5.3213,north-africa,Strait city held by Portugal then Spain; a Spanish enclave still
bejaia,Bejaia,Bejaia,36.7509,5.0567,north-africa,Hammadid port and center of learning of the central Maghreb
sale,Sale,Sale,34.0531,-6.8163,north-africa,Corsair republic at the mouth of the Bou Regreg facing Rabat
benghazi,Benghazi,Benghazi,32.1167,20.0686,north-africa,Greek Euhesperides and Ptolemaic Berenice in Cyrenaica
elmina,Elmina,Elmina,5.0847,-1.3508,africa,Site of the oldest European fort in sub-Saharan Africa
ouidah,Ouidah,Ouidah,6.3654,2.0852,africa,Atlantic slave-trade port of Whydah and Dahomey
saint-louis,Saint-Louis,Saint-Louis,16.0179,-16.4896,africa,First French settlement in Africa and capital of French West Africa
goree,Goree,Goree,14.6670,-17.3984,africa,Atlantic island entrepot of the slave trade off Dakar
arguin,Arguin,Arguin,20.4622,-16.4544,africa,First Portuguese trading fort in Africa off the Mauritanian coast
calabar,Calabar,Calabar,4.9757,8.3417,africa,Efik trading state and slave port of the Bight of Biafra
loango,Loango,Loango,-4.6444,11.8147,africa,Capital of the Atlantic kingdom of Loango
sao-tome,Sao Tome,Sao Tome,0.3365,6.7273,africa,Portuguese plantation island and entrepot of the Gulf of Guinea
tichitt,Tichitt,Tichitt,18.4500,-9.5000,africa,Dry-stone settlements of the Dhar Tichitt escarpment; early West African urbanism
walata,Walata,Oualata,17.2900,-7.0300,africa,Saharan caravan and scholarship town of the Mali empire
audaghost,Audaghost,Tegdaoust,17.4300,-10.4000,africa,Western Saharan gold-trade town tied to ancient Ghana
tadmekka,Tadmekka,Es-Souk,18.4600,1.0500,africa,Berber trans-Saharan trade town of the southern desert
agadez,Agadez,Agadez,16.9700,7.9900,africa,Tuareg caravan city and sultanate of the Air massif
katsina,Katsina,Katsina,13.0000,7.6000,africa,Hausa city-state of trade and Islamic scholarship
zaria,Zaria,Zaria,11.0700,7.7200,africa,Hausa city-state of Zazzau of queen Amina
sokoto,Sokoto,Sokoto,13.0600,5.2400,africa,Capital of the Sokoto Caliphate of Usman dan Fodio
segou,Segou,Segou,13.4400,-6.2700,africa,Capital of the Bambara kingdom on the Niger
chinguetti,Chinguetti,Chinguetti,20.4600,-12.3600,africa,Saharan caravan town and one of the holy cities of Islam
yeha,Yeha,Yeha,14.2700,39.0800,africa,Capital of the Dmt polity and oldest monument of the Horn
khami,Khami,Khami,-20.1500,28.3800,africa,Stone-walled capital that succeeded Great Zimbabwe
begho,Begho,Begho,7.8000,-2.5000,africa,Akan gold-trade town at the edge of the forest
linzi,Linzi,Zibo,36.8200,118.3100,china,Capital of the state of Qi and a great city of the Warring States
xianyang,Xianyang,Xianyang,34.3300,108.7100,china,Capital of the Qin state and the first unified Chinese empire
handan,Handan,Handan,36.6100,114.4900,china,Capital of the state of Zhao in the Warring States
qufu,Qufu,Qufu,35.6000,116.9900,china,Capital of the state of Lu and home of Confucius
ying,Ying,Jingzhou,30.3500,112.1900,china,Capital of the southern state of Chu on the Yangtze
yecheng,Yecheng,Linzhang,36.3300,114.6200,china,Capital of successive northern dynasties razed by the Sui
yangzhou,Yangzhou,Yangzhou,32.4000,119.4300,china,Grand Canal city and great commercial hub of Tang and Qing China
gongju,Gongju,Gongju,36.4500,127.1200,korea,Ungjin; the second capital of the Baekje kingdom
buyeo,Buyeo,Buyeo,36.2800,126.9100,korea,Sabi; the last capital of the Baekje kingdom
gimhae,Gimhae,Gimhae,35.2300,128.8800,korea,Capital of Geumgwan Gaya and the Gaya iron trade
asuka,Asuka,Asuka,34.4700,135.8200,japan,Seat of the Yamato court in the Asuka period
fujiwara-kyo,Fujiwara-kyo,Kashihara,34.5020,135.8070,japan,Japan's first Chinese-style planned capital before Nara
naniwa,Naniwa,Osaka,34.6800,135.5200,japan,Ancient Yamato seaport and intermittent capital; precursor to Osaka
dazaifu,Dazaifu,Dazaifu,33.5100,130.5200,japan,Ancient government seat of Kyushu and gateway to the continent
sakai,Sakai,Sakai,34.5800,135.4700,japan,Self-governing merchant port of medieval Japan
hirado,Hirado,Hirado,33.3700,129.5500,japan,Early port of Portuguese Dutch and English trade with Japan
pasai,Samudera Pasai,Lhokseumawe,5.2000,97.5800,southeast-asia,First Muslim sultanate of the archipelago on northern Sumatra
aceh,Aceh,Banda Aceh,5.5500,95.3200,southeast-asia,Dominant pepper sultanate of Sumatra and a center of Islam
banten,Banten,Banten,-6.0300,106.1500,southeast-asia,Pepper sultanate of west Java that rivaled Dutch Batavia
demak,Demak,Demak,-6.8900,110.6400,southeast-asia,First Muslim state on Java that overthrew Hindu Majapahit
brunei,Brunei,Bandar Seri Begawan,4.8900,114.9400,southeast-asia,Borneo sultanate that once ruled the northern coasts
hoi-an,Hoi An,Hoi An,15.8800,108.3300,southeast-asia,International trading port of the Nguyen lords
sambor-prei-kuk,Sambor Prei Kuk,Sambor Prei Kuk,12.8700,105.0500,southeast-asia,Isanapura; pre-Angkorian capital of Chenla
balasagun,Balasagun,Burana,42.8000,75.2500,steppe,Karakhanid and Kara-Khitai capital of the Chu valley
suyab,Suyab,Ak-Beshim,42.8050,75.2000,steppe,Sogdian town and the westernmost Tang garrison on the Silk Road
taraz,Taraz,Taraz,42.9000,71.3700,steppe,Silk Road city near the battlefield of Talas
turkestan,Turkestan,Turkestan,43.3000,68.2500,steppe,Shrine city of Khoja Ahmed Yasawi and a Kazakh capital
sygnak,Sygnak,Sygnak,44.0000,66.9000,steppe,Syr Darya capital of the White Horde and early Kazakh Khanate
panjikent,Panjikent,Panjakent,39.4900,67.6100,steppe,Sogdian town of murals in the upper Zerafshan
andijan,Andijan,Andijan,40.7800,72.3400,steppe,Chief city of the Fergana valley and birthplace of Babur
phanagoria,Phanagoria,Sennoy,45.2800,36.9700,pontic-steppe,Greek Asian capital of the Bosporan Kingdom on the Taman
tmutarakan,Tmutarakan,Taman,45.2200,36.7100,pontic-steppe,Greek Hermonassa and a far Rus principality on the Taman
sarkel,Sarkel,Sarkel,47.6500,42.1500,pontic-steppe,Khazar brick fortress on the Don
sudak,Sudak,Sudak,44.8500,34.9700,pontic-steppe,Genoese Black Sea port of Soldaia in the Crimea
solkhat,Solkhat,Stary Krym,45.0300,35.0900,pontic-steppe,Golden Horde town that gave Crimea its name
bakhchisarai,Bakhchisarai,Bakhchisarai,44.7500,33.8600,pontic-steppe,Capital of the Crimean Khanate of the Giray khans
tana,Tana,Azov,47.1100,39.4200,pontic-steppe,Venetian and Genoese trade colony at the mouth of the Don
pliska,Pliska,Pliska,43.3800,27.1200,europe-east,First capital of the First Bulgarian Empire
preslav,Preslav,Veliki Preslav,43.1700,26.8200,europe-east,Second Bulgarian capital of the golden age of Simeon
kazan,Kazan,Kazan,55.7900,49.1200,europe-east,Capital of the Tatar Kazan Khanate on the Volga
chernihiv,Chernihiv,Chernihiv,51.5000,31.3000,europe-east,Chief Kievan Rus city and principality on the Desna
smolensk,Smolensk,Smolensk,54.7800,32.0500,europe-east,Rus city commanding the upper Dnieper trade route
pskov,Pskov,Pskov,57.8200,28.3300,europe-east,Northern Rus merchant republic akin to Novgorod
tver,Tver,Tver,56.8600,35.9200,europe-east,Grand principality that rivaled Moscow for the lead of Rus
suzdal,Suzdal,Suzdal,56.4200,40.4500,europe-east,Early seat of the Rostov-Suzdal principality
gniezno,Gniezno,Gniezno,52.5400,17.5900,europe-east,First capital of Piast Poland
esztergom,Esztergom,Esztergom,47.7900,18.7400,europe-east,First royal capital and primatial see of Hungary
mtskheta,Mtskheta,Mtskheta,41.8450,44.7200,caucasus,Ancient capital of Iberia and religious heart of Georgia
kutaisi,Kutaisi,Kutaisi,42.2700,42.7000,caucasus,Colchian town and Bagratid capital of Georgia
artashat,Artashat,Artashat,39.9400,44.5500,caucasus,Classical capital of Armenia on the Araxes
vagharshapat,Vagharshapat,Vagharshapat,40.1620,44.2910,caucasus,Spiritual capital of Armenia at Etchmiadzin
partav,Partav,Barda,40.3700,47.1300,caucasus,Capital of Caucasian Albania and early Islamic Arran
ganja,Ganja,Ganja,40.6800,46.3600,caucasus,City of Arran and home of the poet Nizami
shamakhi,Shamakhi,Shamakhi,40.6300,48.6400,caucasus,Silk-trade capital of the Shirvanshahs
dholavira,Dholavira,Dholavira,23.8870,70.2130,india,Harappan city of the Rann of Kutch famed for its water reservoirs
lothal,Lothal,Lothal,22.5210,72.2490,india,Harappan port with what may be the world's earliest dockyard
rajagriha,Rajagriha,Rajgir,25.0290,85.4200,india,Hill-girt first capital of Magadha
vaishali,Vaishali,Vaishali,25.9900,85.1280,india,Capital of the Licchavi republic and an early Buddhist center
sravasti,Sravasti,Sravasti,27.5190,82.0300,india,Capital of Kosala where the Buddha long resided
nalanda,Nalanda,Nalanda,25.1360,85.4440,india,The great Buddhist monastic university of the Gupta age
kannauj,Kannauj,Kannauj,27.0550,79.9150,india,Imperial capital of Harsha and the Gurjara-Pratiharas
badami,Badami,Badami,15.9180,75.6810,india,Vatapi; cave-temple capital of the Chalukyas
gangaikonda-cholapuram,Gangaikonda Cholapuram,Gangaikonda Cholapuram,11.2060,79.4470,india,Imperial capital built by Rajendra Chola
halebidu,Halebidu,Halebidu,13.2130,75.9950,india,Dwarasamudra; temple capital of the Hoysalas
warangal,Warangal,Warangal,17.9760,79.6000,india,Fortress capital of the Kakatiya dynasty
gulbarga,Gulbarga,Kalaburagi,17.3290,76.8340,india,First capital of the Bahmani Sultanate of the Deccan
bidar,Bidar,Bidar,17.9100,77.5200,india,Bahmani and Barid Shahi capital of the Deccan
bijapur,Bijapur,Vijayapura,16.8270,75.7100,india,Adil Shahi capital famed for the Gol Gumbaz
golconda,Golconda,Golconda,17.3830,78.4010,india,Diamond-trade fortress capital of the Qutb Shahis
daulatabad,Daulatabad,Daulatabad,19.9430,75.2190,india,Devagiri; Yadava fort and Tughlaq's failed capital
patan,Patan,Patan,23.8500,72.1260,india,Anhilwara; Chaulukya capital of medieval Gujarat
ahmedabad,Ahmedabad,Ahmedabad,23.0230,72.5710,india,Capital of the Gujarat Sultanate and a great textile city
mandu,Mandu,Mandu,22.3440,75.3750,india,Hilltop capital of the Malwa Sultanate
somnath,Somnath,Somnath,20.8880,70.4010,india,Shiva temple-port sacked by Mahmud of Ghazni
dwarka,Dwarka,Dwarka,22.2380,68.9680,india,Coastal pilgrimage city associated with Krishna
ajmer,Ajmer,Ajmer,26.4710,74.6390,india,Chauhan capital and shrine of Moinuddin Chishti
chittorgarh,Chittorgarh,Chittorgarh,24.8790,74.6290,india,The great Rajput fortress capital of Mewar
fatehpur-sikri,Fatehpur Sikri,Fatehpur Sikri,27.0940,77.6610,india,Akbar's purpose-built and swiftly abandoned Mughal capital
srinagar,Srinagar,Srinagar,34.0840,74.7970,india,Capital of the Kashmir valley
goa,Goa,Velha Goa,15.5000,73.9120,india,Capital of Portuguese India and the Rome of the East
calicut,Calicut,Kozhikode,11.2590,75.7800,india,Zamorin's pepper port where Vasco da Gama landed in 1498
cochin,Cochin,Kochi,9.9660,76.2420,india,Malabar spice port held by Portugal then the Dutch
machilipatnam,Machilipatnam,Machilipatnam,16.1900,81.1300,india,Great Coromandel textile port of the 17th century
pondicherry,Pondicherry,Puducherry,11.9340,79.8300,india,Capital of French India on the Coromandel coast
bengaluru,Bengaluru,Bengaluru,12.9720,77.5950,india,Kempe Gowda's market town and modern technology capital
polonnaruwa,Polonnaruwa,Polonnaruwa,7.9400,81.0000,india,Second great royal capital of medieval Sri Lanka
sigiriya,Sigiriya,Sigiriya,7.9570,80.7600,india,Kashyapa's rock-fortress capital in Sri Lanka
kandy,Kandy,Kandy,7.2910,80.6360,india,Capital of the last independent Sinhalese kingdom
galle,Galle,Galle,6.0330,80.2170,india,Walled Dutch port on the south coast of Sri Lanka
bursa,Bursa,Bursa,40.1950,29.0600,anatolia,Byzantine Prusa and the first Ottoman capital
edirne,Edirne,Edirne,41.6770,26.5560,anatolia,Roman Adrianople and the second Ottoman capital
kayseri,Kayseri,Kayseri,38.7330,35.4850,anatolia,Mazaca and Caesarea; metropolis of Cappadocia
halicarnassus,Halicarnassus,Bodrum,37.0380,27.4240,anatolia,Carian capital of Mausolus and site of the Mausoleum
aphrodisias,Aphrodisias,Aphrodisias,37.7080,28.7250,anatolia,Roman city of the Aphrodite cult and its sculpture school
sivas,Sivas,Sivas,39.7480,37.0150,anatolia,Roman Sebasteia and a great Seljuk city of Rum
amorium,Amorium,Amorium,39.0200,31.3000,anatolia,Byzantine fortress city sacked by the Abbasids in 838
erzurum,Erzurum,Erzurum,39.9080,41.2770,anatolia,Byzantine Theodosiopolis and eastern frontier stronghold
antalya,Antalya,Antalya,36.8870,30.7070,anatolia,Attaleia; Mediterranean port of Pergamon and the Seljuks
amasya,Amasya,Amasya,40.6500,35.8330,anatolia,Capital of the kingdom of Pontus and birthplace of Strabo
xanthos,Xanthos,Xanthos,36.3560,29.3190,anatolia,Capital of ancient Lycia famed for its defiant sieges
hierapolis,Hierapolis,Pamukkale,37.9240,29.1280,anatolia,Roman spa city above the travertine terraces
myra,Myra,Demre,36.2580,29.9850,anatolia,Lycian city and see of Saint Nicholas
perge,Perge,Perge,36.9610,30.8540,anatolia,Pamphylian Roman city and home of Apollonius
manzikert,Manzikert,Malazgirt,39.1460,42.5380,anatolia,Fortress of the 1071 battle that opened Anatolia to the Turks
amida,Amida,Diyarbakir,37.9140,40.2300,anatolia,Walled Tigris fortress of the Roman and Islamic frontiers
phocaea,Phocaea,Foca,38.6750,26.7560,anatolia,Ionian seafaring city and mother of Massalia
alanya,Alanya,Alanya,36.5440,32.0000,anatolia,Seljuk naval base and winter capital of Alaeddin Keykubad
leluh,Leluh,Lelu,5.3300,163.0200,oceania,Megalithic stone capital of the Kosrae chiefdom
taputapuatea,Taputapuatea,Taputapuatea,-16.8400,-151.3700,oceania,Great marae and religious heart of East Polynesia
pulemelei,Pulemelei,Pulemelei,-13.7700,-172.4000,oceania,Largest ancient stone monument in Polynesia on Savaii
bau,Bau,Bau,-17.9900,178.5900,oceania,Chiefly island of Cakobau that came to dominate Fiji
hagatna,Hagatna,Hagatna,13.4750,144.7480,oceania,Chamorro village and Spanish capital of the Marianas
levuka,Levuka,Levuka,-17.6800,178.8300,oceania,First colonial capital of Fiji on Ovalau
hobart,Hobart,Hobart,-42.8800,147.3250,oceania,British penal settlement and capital of Tasmania
apia,Apia,Apia,-13.8330,-171.7600,oceania,Contested Samoan port and capital of independent Samoa
papeete,Papeete,Papeete,-17.5350,-149.5700,oceania,French capital of Tahiti and the Society Islands
noumea,Noumea,Noumea,-22.2760,166.4570,oceania,French penal and nickel port of New Caledonia
kororareka,Kororareka,Russell,-35.2620,174.1210,oceania,First European settlement in New Zealand by Waitangi
dunedin,Dunedin,Dunedin,-45.8740,170.5040,oceania,Scottish settlement and Otago gold-rush boomtown
san-lorenzo,San Lorenzo,San Lorenzo,17.7500,-94.7300,americas,Earliest great Olmec center of the Gulf coast
la-venta,La Venta,La Venta,18.1000,-94.0400,americas,Olmec ceremonial center of the great clay pyramid
el-mirador,El Mirador,El Mirador,17.7550,-89.9200,americas,Vast Preclassic Maya city of the Peten
kaminaljuyu,Kaminaljuyu,Kaminaljuyu,14.6280,-90.5560,americas,Highland Maya capital tied to Teotihuacan
uxmal,Uxmal,Uxmal,20.3600,-89.7700,americas,Puuc Maya capital of the Yucatan hills
coba,Coba,Coba,20.4900,-87.7300,americas,Classic Maya city of causeways in the eastern Yucatan
mayapan,Mayapan,Mayapan,20.6300,-89.4600,americas,Last great Maya capital of the northern lowlands
cholula,Cholula,Cholula,19.0600,-98.3000,americas,Sacred city of the largest pyramid by volume on earth
xochicalco,Xochicalco,Xochicalco,18.8040,-99.3000,americas,Epiclassic hilltop capital after Teotihuacan
el-tajin,El Tajin,El Tajin,20.4500,-97.3800,americas,Capital of the Classic Veracruz culture
mitla,Mitla,Mitla,16.9200,-96.3600,americas,Zapotec religious center of mosaic stonework
tzintzuntzan,Tzintzuntzan,Tzintzuntzan,19.6200,-101.5800,americas,Capital of the Tarascan rival of the Aztecs
tlatelolco,Tlatelolco,Tlatelolco,19.4510,-99.1380,americas,Aztec twin city and great market of Tenochtitlan
moche,Moche,Moche,-8.1300,-78.9900,americas,Capital of the Moche and the Huacas of the Sun and Moon
sican,Sican,Sican,-6.4600,-79.7800,americas,Capital of the gold-working Sican culture
cahuachi,Cahuachi,Cahuachi,-14.8200,-75.1200,americas,Ceremonial center of the Nazca lines
kuelap,Kuelap,Kuelap,-6.4200,-77.9200,americas,Cloud-forest fortress city of the Chachapoya
machu-picchu,Machu Picchu,Machu Picchu,-13.1630,-72.5450,americas,Mountain royal estate of the Inca Pachacuti
ollantaytambo,Ollantaytambo,Ollantaytambo,-13.2580,-72.2630,americas,Inca temple-fortress of the Sacred Valley
tomebamba,Tomebamba,Cuenca,-2.9000,-79.0050,americas,Northern Inca capital built by Huayna Capac
pukara,Pukara,Pukara,-15.1100,-70.3700,americas,Early Titicaca-basin forerunner of Tiwanaku
sechin,Sechin,Sechin,-9.4700,-78.2600,americas,Among the earliest monumental sites in the Americas
poverty-point,Poverty Point,Poverty Point,32.6300,-91.4100,americas,Monumental Archaic earthworks of the lower Mississippi
newark-earthworks,Newark Earthworks,Newark,40.0500,-82.4400,americas,Great geometric earthworks of the Hopewell culture
casa-grande,Casa Grande,Casa Grande,33.0000,-111.5400,americas,Hohokam great house and canal society of the Sonoran desert
paquime,Paquime,Casas Grandes,30.3700,-107.9500,americas,Adobe trade city linking the Southwest and Mesoamerica
etowah,Etowah,Etowah,34.1200,-84.7700,americas,Mississippian mound center of the southern Appalachians
taos-pueblo,Taos Pueblo,Taos,36.4400,-105.5450,americas,Long-inhabited adobe pueblo of the upper Rio Grande
lanse-aux-meadows,L'Anse aux Meadows,L'Anse aux Meadows,51.6000,-55.5300,americas,Norse settlement and first European site in the Americas
st-augustine,St Augustine,St Augustine,29.9000,-81.3100,americas,Oldest European city in the present United States
jamestown,Jamestown,Jamestown,37.2100,-76.7800,americas,First permanent English settlement in the Americas
santa-fe,Santa Fe,Santa Fe,35.6900,-105.9400,americas,Spanish capital of New Mexico
montreal,Montreal,Montreal,45.5000,-73.5700,americas,French fur-trade city of the St Lawrence
potosi,Potosi,Potosi,-19.5900,-65.7500,americas,Silver mountain city that funded the Spanish empire
cartagena,Cartagena,Cartagena,10.4200,-75.5500,americas,Fortified Spanish treasure port of the Caribbean
veracruz,Veracruz,Veracruz,19.1900,-96.1500,americas,Chief Atlantic port of New Spain
acapulco,Acapulco,Acapulco,16.8500,-99.8200,americas,Pacific terminus of the Manila galleon
zacatecas,Zacatecas,Zacatecas,22.7700,-102.5800,americas,Great silver-mining city of northern New Spain
ouro-preto,Ouro Preto,Ouro Preto,-20.3900,-43.5100,americas,Boomtown of the Brazilian gold rush
